id,Country,Namespace,Reporting year,Network,Network name,Measurement station,Station EoI code,Measurement station name,Sampling point,Used for AQD,Data aggregation process,Data reporting metric,Objective type,Protection target,Air pollutant,Air pollution level,Exceedance threshold,Unit,Data coverage [%],Data verification,Type of station,Area of station,Latitude of station,Longitude of station,Zone code,Zone description,Type of zone
2014#Albania.SO2.P1Y-daysAbove125.LV.SPO-AL0203A_00001_100,Albania,AL.AEF.AQ,2014,NET-AL001A,"""Agency of Environment and Forestry""",STA-AL0203A,AL0203A,"""Korca""",SPO-AL0203A_00001_100,NO,1 year day exceed 125,Days in exceedance in a calendar year,Limit Value (LV),Health,SO2,0,3,count,65.75,Verified,Background,Urban,40.62593,20.78018,,,
2014#Belgium.PM10.P1Y-daysAbove50.LV.SPO-BETR811_00005_100,Belgium,BE.CELINE-IRCEL.AQ,2014,NET-Flanders,Flanders,STA-BETR811,BETR811,42R811 - SCHOTEN,SPO-BETR811_00005_100,YES,1 year day exceed 50,Days in exceedance in a calendar year,Limit Value (LV),Health,PM10,13,50,count,95.89,Verified,Background,Suburban,51.252637,4.490087,BEF02A,ANTWERP,Agglomeration
2014#Czech Republic.NO2.P1Y.MO.SPO-CZ0MOLJ_00008_100,Czech Republic,CZ.CHMI-Prague-Komorany.AQ,2014,NET-CZ001A,"""National automated monitoring network""",STA-CZ0MOLJ,CZ0MOLJ,"""Olomouc-Hejcin""",SPO-CZ0MOLJ_00008_100,YES,Annual mean / 1 calendar year,Annual mean / average,Monitoring objective (MO),Not applicable,NO2,22.7,,ug.m-3,95.45,Verified,Background,Urban,49.60164,17.23784,CZ07,Stredni Morava,Non-agglomeration
2014#Denmark.NO2.P1Y.LVmaxMOT.SPO-DK0053A_00008_100,Denmark,DK.NERI.AQ,2014,NET-DK004A,"""Danish Air Quality Monitoring Programme""",STA-DK0053A,DK0053A,"""Aalborg/8158""",SPO-DK0053A_00008_100,YES,Annual mean / 1 calendar year,Annual mean / average,Limit value plus maximum margin of tolerance,Health,NO2,12.95,60,ug.m-3,94.04,Verified,Background,Urban,57.046665,9.930847,DK0003,Remaining DK,Non-agglomeration
2014#Spain.NO2.P1Y-hrsAbove400.LV.SP_07015001_8_8,Spain,ES.BDCA.AQD,2014,NET_ES204A,CCAA Islas Baleares,STA_ES1828A,ES1828A,CIUTADELLA DE MENORCA,SP_07015001_8_8,YES,1 year hour exceed 400,Hours in exceedance in a calendar year,Limit Value (LV),Health,NO2,0,18,count,61.89,Verified,Background,Suburban,40.00944,3.85648,ES0410,RESTO MENORCA ,Non-agglomeration
